[
    {
        "id": 2803460,
        "name": "Märkischer Kreis",
        "state": "",
        "country": "DE",
        "coord": {
            "lon": 7.74167,
            "lat": 51.263889
        }
    },
    {
        "id": 2803461,
        "name": "Landkreis Hildesheim",
        "state": "",
        "country": "DE",
        "coord": {
            "lon": 9.965,
            "lat": 52.126671
        }
    },
    {
        "id": 2803463,
        "name": "Landkreis Aichach-Friedberg",
        "state": "",
        "country": "DE",
        "coord": {
            "lon": 11.05472,
            "lat": 48.417221
        }
    },
    {
        "id": 2803468,
        "name": "Zyfflich",
        "state": "",
        "country": "DE",
        "coord": {
            "lon": 5.96667,
            "lat": 51.816669
        }
    },
    {
        "id": 2803474,
        "name": "Zwota",
        "state": "",
        "country": "DE",
        "coord": {
            "lon": 12.43333,
            "lat": 50.383331
        }
    },
    {
        "id": 2803475,
        "name": "Zwoschwitz",
        "state": "",
        "country": "DE",
        "coord": {
            "lon": 12.1,
            "lat": 50.51667
        }
    },
    {
        "id": 2803476,
        "name": "Zwönitz",
        "state": "",
        "country": "DE",
        "coord": {
            "lon": 12.8,
            "lat": 50.633331
        }
    },
    {
        "id": 2803489,
        "name": "Zwochau",
        "state": "",
        "country": "DE",
        "coord": {
            "lon": 12.26667,
            "lat": 51.466671
        }
    },
    {
        "id": 2803490,
        "name": "Zwochau",
        "state": "",
        "country": "DE",
        "coord": {
            "lon": 12.81667,
            "lat": 51.433331
        }
    },
    {
        "id": 2803504,
        "name": "Zwischenahnerfeld",
        "state": "",
        "country": "DE",
        "coord": {
            "lon": 8.0,
            "lat": 53.183331
        }
    },
    {
        "id": 2803510,
        "name": "Zwintschöna",
        "state": "",
        "country": "DE",
        "coord": {
            "lon": 12.04462,
            "lat": 51.447109
        }
    },
    {
        "id": 2803515,
        "name": "Zwingenberg",
        "state": "",
        "country": "DE",
        "coord": {
            "lon": 8.61861,
            "lat": 49.726391
        }
    },
    {
        "id": 2803516,
        "name": "Zwingenberg",
        "state": "",
        "country": "DE",
        "coord": {
            "lon": 9.04056,
            "lat": 49.41917
        }
    },
    {
        "id": 2803519,
        "name": "Zwinge",
        "state": "",
        "country": "DE",
        "coord": {
            "lon": 10.38333,
            "lat": 51.549999
        }
    },
    {
        "id": 2803524,
        "name": "Zwietow",
        "state": "",
        "country": "DE",
        "coord": {
            "lon": 13.96667,
            "lat": 51.683331
        }
    },
    {
        "id": 2803537,
        "name": "Zwiesel",
        "state": "",
        "country": "DE",
        "coord": {
            "lon": 13.23333,
            "lat": 49.01667
        }
    },
    {
        "id": 2803543,
        "name": "Zwiefaltendorf",
        "state": "",
        "country": "DE",
        "coord": {
            "lon": 9.51764,
            "lat": 48.21484
        }
    },
    {
        "id": 2803545,
        "name": "Zwiefalten",
        "state": "",
        "country": "DE",
        "coord": {
            "lon": 9.46232,
            "lat": 48.233959
        }
    },
    {
        "id": 2803558,
        "name": "Zwickau",
        "state": "",
        "country": "DE",
        "coord": {
            "lon": 12.48333,
            "lat": 50.716671
        }
    },
    {
        "id": 2803560,
        "name": "Zwickau",
        "state": "",
        "country": "DE",
        "coord": {
            "lon": 12.5,
            "lat": 50.73333
        }
    },
    {
        "id": 2803562,
        "name": "Zwethau",
        "state": "",
        "country": "DE",
        "coord": {
            "lon": 13.04266,
            "lat": 51.582619
        }
    },
    {
        "id": 2803564,
        "name": "Zwesten",
        "state": "",
        "country": "DE",
        "coord": {
            "lon": 9.18333,
            "lat": 51.049999
        }
    },
    {
        "id": 2803573,
        "name": "Zwergen",
        "state": "",
        "country": "DE",
        "coord": {
            "lon": 9.3,
            "lat": 51.48333
        }
    },
    {
        "id": 2803577,
        "name": "Zwergau",
        "state": "",
        "country": "DE",
        "coord": {
            "lon": 11.96667,
            "lat": 49.866669
        }
    },
    {
        "id": 2803588,
        "name": "Zwenkau",
        "state": "",
        "country": "DE",
        "coord": {
            "lon": 12.31667,
            "lat": 51.216671
        }
    },
    {
        "id": 2803604,
        "name": "Zweiflingen",
        "state": "",
        "country": "DE",
        "coord": {
            "lon": 9.51806,
            "lat": 49.25639
        }
    },
    {
        "id": 2803606,
        "name": "Zweifelscheid",
        "state": "",
        "country": "DE",
        "coord": {
            "lon": 6.25,
            "lat": 50.033329
        }
    },
    {
        "id": 2803614,
        "name": "Zweifall",
        "state": "",
        "country": "DE",
        "coord": {
            "lon": 6.25,
            "lat": 50.716671
        }
    },
    {
        "id": 2803620,
        "name": "Zweibrücken",
        "state": "",
        "country": "DE",
        "coord": {
            "lon": 7.36667,
            "lat": 49.25
        }
    },
    {
        "id": 2803624,
        "name": "Zweenfurth",
        "state": "",
        "country": "DE",
        "coord": {
            "lon": 12.55,
            "lat": 51.333328
        }
    },
    {
        "id": 2803635,
        "name": "Zwebendorf",
        "state": "",
        "country": "DE",
        "coord": {
            "lon": 12.1,
            "lat": 51.5
        }
    },
    {
        "id": 2803642,
        "name": "Zuzenhausen",
        "state": "",
        "country": "DE",
        "coord": {
            "lon": 8.82254,
            "lat": 49.29636
        }
    },
    {
        "id": 2803646,
        "name": "Zützschdorf",
        "state": "",
        "country": "DE",
        "coord": {
            "lon": 11.9,
            "lat": 51.299999
        }
    },
    {
        "id": 2803648,
        "name": "Zützen",
        "state": "",
        "country": "DE",
        "coord": {
            "lon": 13.63333,
            "lat": 51.933331
        }
    },
    {
        "id": 2803650,
        "name": "Zustorf",
        "state": "",
        "country": "DE",
        "coord": {
            "lon": 11.93333,
            "lat": 48.416672
        }
    },
    {
        "id": 2803651,
        "name": "Züssow",
        "state": "",
        "country": "DE",
        "coord": {
            "lon": 13.54855,
            "lat": 53.977089
        }
    },
    {
        "id": 2803654,
        "name": "Züsow",
        "state": "",
        "country": "DE",
        "coord": {
            "lon": 11.68333,
            "lat": 53.916672
        }
    },
    {
        "id": 2803655,
        "name": "Zusmarshausen",
        "state": "",
        "country": "DE",
        "coord": {
            "lon": 10.6,
            "lat": 48.400002
        }
    },
    {
        "id": 2803657,
        "name": "Züsedom",
        "state": "",
        "country": "DE",
        "coord": {
            "lon": 14.01667,
            "lat": 53.450001
        }
    },
    {
        "id": 2803663,
        "name": "Züschen",
        "state": "",
        "country": "DE",
        "coord": {
            "lon": 8.55,
            "lat": 51.150002
        }
    },
    {
        "id": 2803664,
        "name": "Züsch",
        "state": "",
        "country": "DE",
        "coord": {
            "lon": 7.0,
            "lat": 49.650002
        }
    },
    {
        "id": 2803665,
        "name": "Zusamzell",
        "state": "",
        "country": "DE",
        "coord": {
            "lon": 10.6,
            "lat": 48.48333
        }
    },
    {
        "id": 2803667,
        "name": "Zusamaltheim",
        "state": "",
        "country": "DE",
        "coord": {
            "lon": 10.63562,
            "lat": 48.53104
        }
    },
    {
        "id": 2803670,
        "name": "Zurow",
        "state": "",
        "country": "DE",
        "coord": {
            "lon": 11.61667,
            "lat": 53.866669
        }
    },
    {
        "id": 2803681,
        "name": "Zürchel",
        "state": "",
        "country": "DE",
        "coord": {
            "lon": 13.85,
            "lat": 51.616669
        }
    },
    {
        "id": 2803683,
        "name": "Zürbach",
        "state": "",
        "country": "DE",
        "coord": {
            "lon": 7.81667,
            "lat": 50.566669
        }
    },
    {
        "id": 2803686,
        "name": "Zunsweier",
        "state": "",
        "country": "DE",
        "coord": {
            "lon": 7.94689,
            "lat": 48.423851
        }
    },
    {
        "id": 2803687,
        "name": "Zunschwitz",
        "state": "",
        "country": "DE",
        "coord": {
            "lon": 13.16667,
            "lat": 51.183331
        }
    },
    {
        "id": 2803689,
        "name": "Zunham",
        "state": "",
        "country": "DE",
        "coord": {
            "lon": 12.32855,
            "lat": 47.946758
        }
    },
    {
        "id": 2803722,
        "name": "Zultenberg",
        "state": "",
        "country": "DE",
        "coord": {
            "lon": 11.31667,
            "lat": 50.049999
        }
    },
    {
        "id": 2803723,
        "name": "Zulpich",
        "state": "",
        "country": "DE",
        "coord": {
            "lon": 6.65,
            "lat": 50.700001
        }
    },
    {
        "id": 2803727,
        "name": "Zülow",
        "state": "",
        "country": "DE",
        "coord": {
            "lon": 11.27146,
            "lat": 53.577419
        }
    },
    {
        "id": 2803729,
        "name": "Züllsdorf",
        "state": "",
        "country": "DE",
        "coord": {
            "lon": 13.11667,
            "lat": 51.633331
        }
    },
    {
        "id": 2803733,
        "name": "Zühr",
        "state": "",
        "country": "DE",
        "coord": {
            "lon": 11.0277,
            "lat": 53.437462
        }
    },
    {
        "id": 2803737,
        "name": "Zühlsdorf",
        "state": "",
        "country": "DE",
        "coord": {
            "lon": 13.38761,
            "lat": 52.73
        }
    },
    {
        "id": 2803742,
        "name": "Zühlen",
        "state": "",
        "country": "DE",
        "coord": {
            "lon": 12.81667,
            "lat": 53.083328
        }
    },
    {
        "id": 2803756,
        "name": "Zuffenhausen",
        "state": "",
        "country": "DE",
        "coord": {
            "lon": 9.17024,
            "lat": 48.832241
        }
    },
    {
        "id": 2803758,
        "name": "Zudar",
        "state": "",
        "country": "DE",
        "coord": {
            "lon": 13.35,
            "lat": 54.26667
        }
    },
    {
        "id": 2803760,
        "name": "Zückshut",
        "state": "",
        "country": "DE",
        "coord": {
            "lon": 10.92616,
            "lat": 49.966911
        }
    },
    {
        "id": 2803768,
        "name": "Zuckelhausen",
        "state": "",
        "country": "DE",
        "coord": {
            "lon": 12.45,
            "lat": 51.299999
        }
    },
    {
        "id": 2803776,
        "name": "Zschortau",
        "state": "",
        "country": "DE",
        "coord": {
            "lon": 12.35893,
            "lat": 51.479301
        }
    },
    {
        "id": 2803781,
        "name": "Zschornewitz",
        "state": "",
        "country": "DE",
        "coord": {
            "lon": 12.4,
            "lat": 51.716671
        }
    },
    {
        "id": 2803786,
        "name": "Zschorlau",
        "state": "",
        "country": "DE",
        "coord": {
            "lon": 12.65,
            "lat": 50.566669
        }
    },
    {
        "id": 2803790,
        "name": "Zschöpperitz",
        "state": "",
        "country": "DE",
        "coord": {
            "lon": 11.3,
            "lat": 50.950001
        }
    },
    {
        "id": 2803792,
        "name": "Zschoppelshain",
        "state": "",
        "country": "DE",
        "coord": {
            "lon": 12.83333,
            "lat": 51.0
        }
    },
    {
        "id": 2803793,
        "name": "Zschoppach",
        "state": "",
        "country": "DE",
        "coord": {
            "lon": 12.88333,
            "lat": 51.216671
        }
    },
    {
        "id": 2803798,
        "name": "Zschopau",
        "state": "",
        "country": "DE",
        "coord": {
            "lon": 13.06667,
            "lat": 50.75
        }
    },
    {
        "id": 2803811,
        "name": "Zschiesewitz",
        "state": "",
        "country": "DE",
        "coord": {
            "lon": 12.41667,
            "lat": 51.75
        }
    },
    {
        "id": 2803813,
        "name": "Zschieren",
        "state": "",
        "country": "DE",
        "coord": {
            "lon": 13.88333,
            "lat": 50.98333
        }
    },
    {
        "id": 2803818,
        "name": "Zschernitz",
        "state": "",
        "country": "DE",
        "coord": {
            "lon": 12.23333,
            "lat": 51.533329
        }
    },
    {
        "id": 2803821,
        "name": "Zscherneddel",
        "state": "",
        "country": "DE",
        "coord": {
            "lon": 12.11667,
            "lat": 51.349998
        }
    },
    {
        "id": 2803823,
        "name": "Zscherndorf",
        "state": "",
        "country": "DE",
        "coord": {
            "lon": 12.26667,
            "lat": 51.616669
        }
    },
    {
        "id": 2803825,
        "name": "Zscherben",
        "state": "",
        "country": "DE",
        "coord": {
            "lon": 11.96667,
            "lat": 51.333328
        }
    },
    {
        "id": 2803827,
        "name": "Zschepplin",
        "state": "",
        "country": "DE",
        "coord": {
            "lon": 12.6,
            "lat": 51.5
        }
    },
    {
        "id": 2803831,
        "name": "Zscheiplitz",
        "state": "",
        "country": "DE",
        "coord": {
            "lon": 11.73333,
            "lat": 51.216671
        }
    },
    {
        "id": 2803837,
        "name": "Zschauitz",
        "state": "",
        "country": "DE",
        "coord": {
            "lon": 12.83333,
            "lat": 51.033329
        }
    },
    {
        "id": 2803848,
        "name": "Zschadrass",
        "state": "",
        "country": "DE",
        "coord": {
            "lon": 12.81667,
            "lat": 51.133331
        }
    },
    {
        "id": 2803857,
        "name": "Zotzenheim",
        "state": "",
        "country": "DE",
        "coord": {
            "lon": 7.96667,
            "lat": 49.866669
        }
    },
    {
        "id": 2803859,
        "name": "Zotzenbach",
        "state": "",
        "country": "DE",
        "coord": {
            "lon": 8.76667,
            "lat": 49.603889
        }
    },
    {
        "id": 2803870,
        "name": "Zossen",
        "state": "",
        "country": "DE",
        "coord": {
            "lon": 13.45,
            "lat": 52.216671
        }
    },
    {
        "id": 2803874,
        "name": "Zöschingen",
        "state": "",
        "country": "DE",
        "coord": {
            "lon": 10.31667,
            "lat": 48.666672
        }
    },
    {
        "id": 2803875,
        "name": "Zöschen",
        "state": "",
        "country": "DE",
        "coord": {
            "lon": 12.11667,
            "lat": 51.349998
        }
    },
    {
        "id": 2803877,
        "name": "Zornow",
        "state": "",
        "country": "DE",
        "coord": {
            "lon": 12.65183,
            "lat": 54.193279
        }
    },
    {
        "id": 2803879,
        "name": "Zörnigall",
        "state": "",
        "country": "DE",
        "coord": {
            "lon": 12.75,
            "lat": 51.866669
        }
    },
    {
        "id": 2803882,
        "name": "Zornheim",
        "state": "",
        "country": "DE",
        "coord": {
            "lon": 8.22472,
            "lat": 49.889999
        }
    },
    {
        "id": 2803884,
        "name": "Zorneding",
        "state": "",
        "country": "DE",
        "coord": {
            "lon": 11.82446,
            "lat": 48.084332
        }
    },
    {
        "id": 2803887,
        "name": "Zorn",
        "state": "",
        "country": "DE",
        "coord": {
            "lon": 7.91667,
            "lat": 50.166672
        }
    },
    {
        "id": 2803889,
        "name": "Zorge",
        "state": "",
        "country": "DE",
        "coord": {
            "lon": 10.63333,
            "lat": 51.633331
        }
    },
    {
        "id": 2803890,
        "name": "Zörbitz",
        "state": "",
        "country": "DE",
        "coord": {
            "lon": 12.03333,
            "lat": 51.200001
        }
    },
    {
        "id": 2803891,
        "name": "Zörbig",
        "state": "",
        "country": "DE",
        "coord": {
            "lon": 12.11667,
            "lat": 51.633331
        }
    },
    {
        "id": 2803892,
        "name": "Zorbau",
        "state": "",
        "country": "DE",
        "coord": {
            "lon": 12.01667,
            "lat": 51.200001
        }
    },
    {
        "id": 2803893,
        "name": "Zopten",
        "state": "",
        "country": "DE",
        "coord": {
            "lon": 11.36667,
            "lat": 50.533329
        }
    },
    {
        "id": 2803897,
        "name": "Zoppaten",
        "state": "",
        "country": "DE",
        "coord": {
            "lon": 11.7,
            "lat": 50.01667
        }
    },
    {
        "id": 2803908,
        "name": "Zons",
        "state": "",
        "country": "DE",
        "coord": {
            "lon": 6.85,
            "lat": 51.116669
        }
    },
    {
        "id": 2803917,
        "name": "Zöllnitz",
        "state": "",
        "country": "DE",
        "coord": {
            "lon": 11.63333,
            "lat": 50.866669
        }
    },
    {
        "id": 2803923,
        "name": "Zolling",
        "state": "",
        "country": "DE",
        "coord": {
            "lon": 11.76667,
            "lat": 48.450001
        }
    },
    {
        "id": 2803929,
        "name": "Zollhaus",
        "state": "",
        "country": "DE",
        "coord": {
            "lon": 8.06667,
            "lat": 50.283329
        }
    },
    {
        "id": 2803953,
        "name": "Zölkow",
        "state": "",
        "country": "DE",
        "coord": {
            "lon": 11.8206,
            "lat": 53.563251
        }
    },
    {
        "id": 2803964,
        "name": "Zodel",
        "state": "",
        "country": "DE",
        "coord": {
            "lon": 15.01076,
            "lat": 51.23914
        }
    },
    {
        "id": 2803972,
        "name": "Zöblitz",
        "state": "",
        "country": "DE",
        "coord": {
            "lon": 13.23333,
            "lat": 50.650002
        }
    },
    {
        "id": 2803979,
        "name": "Zöberitz",
        "state": "",
        "country": "DE",
        "coord": {
            "lon": 12.03333,
            "lat": 51.51667
        }
    },
    {
        "id": 2803983,
        "name": "Zobbenitz",
        "state": "",
        "country": "DE",
        "coord": {
            "lon": 11.36667,
            "lat": 52.400002
        }
    },
    {
        "id": 2803984,
        "name": "Zizishausen",
        "state": "",
        "country": "DE",
        "coord": {
            "lon": 9.34825,
            "lat": 48.64119
        }
    },
    {
        "id": 2803994,
        "name": "Zittow",
        "state": "",
        "country": "DE",
        "coord": {
            "lon": 11.52766,
            "lat": 53.677799
        }
    },
    {
        "id": 2804008,
        "name": "Zittau",
        "state": "",
        "country": "DE",
        "coord": {
            "lon": 14.83333,
            "lat": 50.900002
        }
    },
    {
        "id": 2804009,
        "name": "Ziswingen",
        "state": "",
        "country": "DE",
        "coord": {
            "lon": 10.58704,
            "lat": 48.78606
        }
    },
    {
        "id": 2804018,
        "name": "Zislow",
        "state": "",
        "country": "DE",
        "coord": {
            "lon": 12.3131,
            "lat": 53.43214
        }
    },
    {
        "id": 2804022,
        "name": "Zirzow",
        "state": "",
        "country": "DE",
        "coord": {
            "lon": 13.2,
            "lat": 53.583328
        }
    },
    {
        "id": 2804034,
        "name": "Zirndorf",
        "state": "",
        "country": "DE",
        "coord": {
            "lon": 10.95414,
            "lat": 49.442402
        }
    },
    {
        "id": 2804041,
        "name": "Zirkow",
        "state": "",
        "country": "DE",
        "coord": {
            "lon": 13.55,
            "lat": 54.383331
        }
    },
    {
        "id": 2804042,
        "name": "Zirkow",
        "state": "",
        "country": "DE",
        "coord": {
            "lon": 13.31667,
            "lat": 54.366669
        }
    },
    {
        "id": 2804051,
        "name": "Zirchow",
        "state": "",
        "country": "DE",
        "coord": {
            "lon": 14.13333,
            "lat": 53.883331
        }
    },
    {
        "id": 2804073,
        "name": "Zipkeleben",
        "state": "",
        "country": "DE",
        "coord": {
            "lon": 11.71667,
            "lat": 52.099998
        }
    },
    {
        "id": 2804089,
        "name": "Zinzenzell",
        "state": "",
        "country": "DE",
        "coord": {
            "lon": 12.58333,
            "lat": 49.083328
        }
    },
    {
        "id": 2804091,
        "name": "Zintlhammer",
        "state": "",
        "country": "DE",
        "coord": {
            "lon": 11.91667,
            "lat": 49.76667
        }
    },
    {
        "id": 2804093,
        "name": "Zinst",
        "state": "",
        "country": "DE",
        "coord": {
            "lon": 11.93333,
            "lat": 49.900002
        }
    },
    {
        "id": 2804107,
        "name": "Zinnwald-Georgenfeld",
        "state": "",
        "country": "DE",
        "coord": {
            "lon": 13.76553,
            "lat": 50.73708
        }
    },
    {
        "id": 2804109,
        "name": "Ostseebad Zinnowitz",
        "state": "",
        "country": "DE",
        "coord": {
            "lon": 13.9,
            "lat": 54.066669
        }
    },
    {
        "id": 2804114,
        "name": "Zinndorf",
        "state": "",
        "country": "DE",
        "coord": {
            "lon": 13.91667,
            "lat": 52.5
        }
    },
    {
        "id": 2804121,
        "name": "Zinna",
        "state": "",
        "country": "DE",
        "coord": {
            "lon": 12.95,
            "lat": 51.566669
        }
    },
    {
        "id": 2804122,
        "name": "Zinna",
        "state": "",
        "country": "DE",
        "coord": {
            "lon": 11.73333,
            "lat": 50.916672
        }
    },
    {
        "id": 2804133,
        "name": "Zinhain",
        "state": "",
        "country": "DE",
        "coord": {
            "lon": 7.92775,
            "lat": 50.643848
        }
    },
    {
        "id": 2804135,
        "name": "Zingst",
        "state": "",
        "country": "DE",
        "coord": {
            "lon": 12.68333,
            "lat": 54.433331
        }
    },
    {
        "id": 2804138,
        "name": "Zingsheim",
        "state": "",
        "country": "DE",
        "coord": {
            "lon": 6.65,
            "lat": 50.51667
        }
    },
    {
        "id": 2804144,
        "name": "Zimpel",
        "state": "",
        "country": "DE",
        "coord": {
            "lon": 14.61667,
            "lat": 51.333328
        }
    },
    {
        "id": 2804154,
        "name": "Zimmersdorf",
        "state": "",
        "country": "DE",
        "coord": {
            "lon": 10.48333,
            "lat": 49.166672
        }
    },
    {
        "id": 2804155,
        "name": "Zimmerschied",
        "state": "",
        "country": "DE",
        "coord": {
            "lon": 7.78333,
            "lat": 50.349998
        }
    },
    {
        "id": 2804157,
        "name": "Zimmern unter der Burg",
        "state": "",
        "country": "DE",
        "coord": {
            "lon": 8.71928,
            "lat": 48.220531
        }
    },
    {
        "id": 2804158,
        "name": "Zimmernsupra",
        "state": "",
        "country": "DE",
        "coord": {
            "lon": 10.86667,
            "lat": 50.98333
        }
    },
    {
        "id": 2804159,
        "name": "Zimmern ob Rottweil",
        "state": "",
        "country": "DE",
        "coord": {
            "lon": 8.59436,
            "lat": 48.166599
        }
    },
    {
        "id": 2804161,
        "name": "Zimmern",
        "state": "",
        "country": "DE",
        "coord": {
            "lon": 11.63333,
            "lat": 51.0
        }
    },
    {
        "id": 2804204,
        "name": "Zimkendorf",
        "state": "",
        "country": "DE",
        "coord": {
            "lon": 12.96667,
            "lat": 54.283329
        }
    },
    {
        "id": 2804207,
        "name": "Ziltendorf",
        "state": "",
        "country": "DE",
        "coord": {
            "lon": 14.62411,
            "lat": 52.206081
        }
    },
    {
        "id": 2804208,
        "name": "Zilshausen",
        "state": "",
        "country": "DE",
        "coord": {
            "lon": 7.38333,
            "lat": 50.116669
        }
    },
    {
        "id": 2804210,
        "name": "Zilly",
        "state": "",
        "country": "DE",
        "coord": {
            "lon": 10.81667,
            "lat": 51.950001
        }
    },
    {
        "id": 2804224,
        "name": "Zillenberg",
        "state": "",
        "country": "DE",
        "coord": {
            "lon": 11.06667,
            "lat": 48.283329
        }
    },
    {
        "id": 2804225,
        "name": "Zillbeck",
        "state": "",
        "country": "DE",
        "coord": {
            "lon": 11.16667,
            "lat": 52.383331
        }
    },
    {
        "id": 2804231,
        "name": "Ziggelmark",
        "state": "",
        "country": "DE",
        "coord": {
            "lon": 11.05,
            "lat": 53.51667
        }
    },
    {
        "id": 2804254,
        "name": "Ziethen",
        "state": "",
        "country": "DE",
        "coord": {
            "lon": 13.68333,
            "lat": 53.883331
        }
    },
    {
        "id": 2804255,
        "name": "Ziethen",
        "state": "",
        "country": "DE",
        "coord": {
            "lon": 10.81667,
            "lat": 53.700001
        }
    },
    {
        "id": 2804268,
        "name": "Ziesendorf",
        "state": "",
        "country": "DE",
        "coord": {
            "lon": 12.03333,
            "lat": 54.0
        }
    },
    {
        "id": 2804279,
        "name": "Ziesar",
        "state": "",
        "country": "DE",
        "coord": {
            "lon": 12.28333,
            "lat": 52.26667
        }
    },
    {
        "id": 2804282,
        "name": "Zierzow",
        "state": "",
        "country": "DE",
        "coord": {
            "lon": 11.68333,
            "lat": 53.283329
        }
    },
    {
        "id": 2804283,
        "name": "Ziertheim",
        "state": "",
        "country": "DE",
        "coord": {
            "lon": 10.38333,
            "lat": 48.650002
        }
    },
    {
        "id": 2804285,
        "name": "Zierow",
        "state": "",
        "country": "DE",
        "coord": {
            "lon": 11.36667,
            "lat": 53.933331
        }
    },
    {
        "id": 2804297,
        "name": "Zierenberg",
        "state": "",
        "country": "DE",
        "coord": {
            "lon": 9.30164,
            "lat": 51.36948
        }
    },
    {
        "id": 2804303,
        "name": "Ziepel",
        "state": "",
        "country": "DE",
        "coord": {
            "lon": 11.86667,
            "lat": 52.150002
        }
    },
    {
        "id": 2804313,
        "name": "Ziemetshausen",
        "state": "",
        "country": "DE",
        "coord": {
            "lon": 10.53503,
            "lat": 48.292439
        }
    },
    {
        "id": 2804315,
        "name": "Ziemendorf",
        "state": "",
        "country": "DE",
        "coord": {
            "lon": 11.48333,
            "lat": 52.916672
        }
    },
    {
        "id": 2804316,
        "name": "Zielow",
        "state": "",
        "country": "DE",
        "coord": {
            "lon": 12.68921,
            "lat": 53.354912
        }
    },
    {
        "id": 2804318,
        "name": "Zielitz",
        "state": "",
        "country": "DE",
        "coord": {
            "lon": 11.67572,
            "lat": 52.289581
        }
    },
    {
        "id": 2804337,
        "name": "Zieglhof",
        "state": "",
        "country": "DE",
        "coord": {
            "lon": 11.96754,
            "lat": 49.06813
        }
    },
    {
        "id": 2804368,
        "name": "Ziegenrück",
        "state": "",
        "country": "DE",
        "coord": {
            "lon": 11.65,
            "lat": 50.616669
        }
    },
    {
        "id": 2804391,
        "name": "Ziegenhain",
        "state": "",
        "country": "DE",
        "coord": {
            "lon": 7.53333,
            "lat": 50.683331
        }
    },
    {
        "id": 2804394,
        "name": "Ziegenhagen",
        "state": "",
        "country": "DE",
        "coord": {
            "lon": 9.75,
            "lat": 51.366669
        }
    },
    {
        "id": 2804399,
        "name": "Ziegendorf",
        "state": "",
        "country": "DE",
        "coord": {
            "lon": 11.81667,
            "lat": 53.283329
        }
    },
    {
        "id": 2804400,
        "name": "Ziegendorf",
        "state": "",
        "country": "DE",
        "coord": {
            "lon": 10.75,
            "lat": 49.299999
        }
    },
    {
        "id": 2804401,
        "name": "Ziegenburg",
        "state": "",
        "country": "DE",
        "coord": {
            "lon": 11.65,
            "lat": 50.116669
        }
    },
    {
        "id": 2804405,
        "name": "Ziegenberg",
        "state": "",
        "country": "DE",
        "coord": {
            "lon": 10.01667,
            "lat": 52.033329
        }
    },
    {
        "id": 2804461,
        "name": "Ziegelviehbig",
        "state": "",
        "country": "DE",
        "coord": {
            "lon": 14.76667,
            "lat": 50.883331
        }
    },
    {
        "id": 2804483,
        "name": "Ziegelrode",
        "state": "",
        "country": "DE",
        "coord": {
            "lon": 11.46667,
            "lat": 51.549999
        }
    },
    {
        "id": 2804524,
        "name": "Ziegelhof",
        "state": "",
        "country": "DE",
        "coord": {
            "lon": 7.71667,
            "lat": 47.849998
        }
    },
    {
        "id": 2804549,
        "name": "Ziegelheim",
        "state": "",
        "country": "DE",
        "coord": {
            "lon": 12.55,
            "lat": 50.933331
        }
    },
    {
        "id": 2804554,
        "name": "Ziegelhausen",
        "state": "",
        "country": "DE",
        "coord": {
            "lon": 8.74889,
            "lat": 49.425282
        }
    },
    {
        "id": 2804560,
        "name": "Ziegelerden",
        "state": "",
        "country": "DE",
        "coord": {
            "lon": 11.30613,
            "lat": 50.23172
        }
    },
    {
        "id": 2804602,
        "name": "Ziegel",
        "state": "",
        "country": "DE",
        "coord": {
            "lon": 9.66522,
            "lat": 50.510368
        }
    },
    {
        "id": 2804616,
        "name": "Zickhusen",
        "state": "",
        "country": "DE",
        "coord": {
            "lon": 11.41394,
            "lat": 53.758862
        }
    },
    {
        "id": 2804622,
        "name": "Zickeritz",
        "state": "",
        "country": "DE",
        "coord": {
            "lon": 11.73333,
            "lat": 51.633331
        }
    },
    {
        "id": 2804628,
        "name": "Zichtau",
        "state": "",
        "country": "DE",
        "coord": {
            "lon": 11.3,
            "lat": 52.599998
        }
    },
    {
        "id": 2804630,
        "name": "Zichow",
        "state": "",
        "country": "DE",
        "coord": {
            "lon": 14.03847,
            "lat": 53.18927
        }
    },
    {
        "id": 2804634,
        "name": "Zibberick",
        "state": "",
        "country": "DE",
        "coord": {
            "lon": 11.76667,
            "lat": 52.366669
        }
    },
    {
        "id": 2804642,
        "name": "Zeven",
        "state": "",
        "country": "DE",
        "coord": {
            "lon": 9.28333,
            "lat": 53.299999
        }
    },
    {
        "id": 2804643,
        "name": "Zeuzleben",
        "state": "",
        "country": "DE",
        "coord": {
            "lon": 10.06667,
            "lat": 49.98333
        }
    },
    {
        "id": 2804646,
        "name": "Zeuthen",
        "state": "",
        "country": "DE",
        "coord": {
            "lon": 13.61667,
            "lat": 52.366669
        }
    },
    {
        "id": 2804654,
        "name": "Zeulenroda",
        "state": "",
        "country": "DE",
        "coord": {
            "lon": 11.98333,
            "lat": 50.650002
        }
    },
    {
        "id": 2804664,
        "name": "Zeuchfeld",
        "state": "",
        "country": "DE",
        "coord": {
            "lon": 11.83333,
            "lat": 51.23333
        }
    },
    {
        "id": 2804674,
        "name": "Zettlitz",
        "state": "",
        "country": "DE",
        "coord": {
            "lon": 12.83333,
            "lat": 51.066669
        }
    },
    {
        "id": 2804684,
        "name": "Zettingen",
        "state": "",
        "country": "DE",
        "coord": {
            "lon": 7.2,
            "lat": 50.23333
        }
    },
    {
        "id": 2804686,
        "name": "Zettemin",
        "state": "",
        "country": "DE",
        "coord": {
            "lon": 12.83333,
            "lat": 53.650002
        }
    },
    {
        "id": 2804689,
        "name": "Zetta",
        "state": "",
        "country": "DE",
        "coord": {
            "lon": 13.33333,
            "lat": 51.116669
        }
    },
    {
        "id": 2804692,
        "name": "Zethlingen",
        "state": "",
        "country": "DE",
        "coord": {
            "lon": 11.3,
            "lat": 52.700001
        }
    },
    {
        "id": 2804697,
        "name": "Zetel",
        "state": "",
        "country": "DE",
        "coord": {
            "lon": 7.98333,
            "lat": 53.416672
        }
    },
    {
        "id": 2804700,
        "name": "Zessau",
        "state": "",
        "country": "DE",
        "coord": {
            "lon": 11.91667,
            "lat": 49.799999
        }
    },
    {
        "id": 2804715,
        "name": "Zerrenthin",
        "state": "",
        "country": "DE",
        "coord": {
            "lon": 14.08979,
            "lat": 53.49366
        }
    },
    {
        "id": 2804724,
        "name": "Zernitz",
        "state": "",
        "country": "DE",
        "coord": {
            "lon": 12.36667,
            "lat": 52.883331
        }
    },
    {
        "id": 2804727,
        "name": "Zernin",
        "state": "",
        "country": "DE",
        "coord": {
            "lon": 11.93333,
            "lat": 53.799999
        }
    },
    {
        "id": 2804729,
        "name": "Zernien",
        "state": "",
        "country": "DE",
        "coord": {
            "lon": 10.88325,
            "lat": 53.068451
        }
    },
    {
        "id": 2804732,
        "name": "Zernickow",
        "state": "",
        "country": "DE",
        "coord": {
            "lon": 14.37964,
            "lat": 52.521858
        }
    },
    {
        "id": 2804737,
        "name": "Zermüllen",
        "state": "",
        "country": "DE",
        "coord": {
            "lon": 6.91667,
            "lat": 50.299999
        }
    },
    {
        "id": 2804745,
        "name": "Zerf",
        "state": "",
        "country": "DE",
        "coord": {
            "lon": 6.68333,
            "lat": 49.599998
        }
    },
    {
        "id": 2804748,
        "name": "Zerbst",
        "state": "",
        "country": "DE",
        "coord": {
            "lon": 12.08333,
            "lat": 51.966671
        }
    },
    {
        "id": 2804751,
        "name": "Zeppernick",
        "state": "",
        "country": "DE",
        "coord": {
            "lon": 12.01667,
            "lat": 52.116669
        }
    },
    {
        "id": 2804752,
        "name": "Zeppenheim",
        "state": "",
        "country": "DE",
        "coord": {
            "lon": 6.75771,
            "lat": 51.3018
        }
    },
    {
        "id": 2804756,
        "name": "Zepkow",
        "state": "",
        "country": "DE",
        "coord": {
            "lon": 12.49128,
            "lat": 53.30175
        }
    },
    {
        "id": 2804757,
        "name": "Zepfenhan",
        "state": "",
        "country": "DE",
        "coord": {
            "lon": 8.71409,
            "lat": 48.19138
        }
    },
    {
        "id": 2804759,
        "name": "Zepernick",
        "state": "",
        "country": "DE",
        "coord": {
            "lon": 13.54091,
            "lat": 52.650871
        }
    },
    {
        "id": 2804761,
        "name": "Zepelin",
        "state": "",
        "country": "DE",
        "coord": {
            "lon": 12.04599,
            "lat": 53.834801
        }
    },
    {
        "id": 2804764,
        "name": "Zenting",
        "state": "",
        "country": "DE",
        "coord": {
            "lon": 13.26667,
            "lat": 48.799999
        }
    },
    {
        "id": 2804765,
        "name": "Zentendorf",
        "state": "",
        "country": "DE",
        "coord": {
            "lon": 15.03333,
            "lat": 51.283329
        }
    },
    {
        "id": 2804766,
        "name": "Zentbechhofen",
        "state": "",
        "country": "DE",
        "coord": {
            "lon": 10.9,
            "lat": 49.76667
        }
    },
    {
        "id": 2804768,
        "name": "Zens",
        "state": "",
        "country": "DE",
        "coord": {
            "lon": 11.71667,
            "lat": 51.933331
        }
    },
    {
        "id": 2804773,
        "name": "Zennern",
        "state": "",
        "country": "DE",
        "coord": {
            "lon": 9.3,
            "lat": 51.099998
        }
    },
    {
        "id": 2804784,
        "name": "Zendscheid",
        "state": "",
        "country": "DE",
        "coord": {
            "lon": 6.6,
            "lat": 50.099998
        }
    },
    {
        "id": 2804785,
        "name": "Zenching",
        "state": "",
        "country": "DE",
        "coord": {
            "lon": 12.83333,
            "lat": 49.25
        }
    },
    {
        "id": 2804787,
        "name": "Zempin",
        "state": "",
        "country": "DE",
        "coord": {
            "lon": 13.96667,
            "lat": 54.066669
        }
    },
    {
        "id": 2804788,
        "name": "Zemnick",
        "state": "",
        "country": "DE",
        "coord": {
            "lon": 12.85,
            "lat": 51.866669
        }
    },
    {
        "id": 2804790,
        "name": "Zemmin",
        "state": "",
        "country": "DE",
        "coord": {
            "lon": 13.2593,
            "lat": 53.92223
        }
    },
    {
        "id": 2804791,
        "name": "Zemmer",
        "state": "",
        "country": "DE",
        "coord": {
            "lon": 6.7,
            "lat": 49.900002
        }
    },
    {
        "id": 2804792,
        "name": "Zemitz",
        "state": "",
        "country": "DE",
        "coord": {
            "lon": 13.75,
            "lat": 53.98333
        }
    },
    {
        "id": 2804793,
        "name": "Zembschen",
        "state": "",
        "country": "DE",
        "coord": {
            "lon": 12.1,
            "lat": 51.150002
        }
    },
    {
        "id": 2804796,
        "name": "Zeltingen",
        "state": "",
        "country": "DE",
        "coord": {
            "lon": 7.01667,
            "lat": 49.950001
        }
    },
    {
        "id": 2804803,
        "name": "Zell unter Aichelberg",
        "state": "",
        "country": "DE",
        "coord": {
            "lon": 9.57137,
            "lat": 48.648819
        }
    },
    {
        "id": 2804808,
        "name": "Zellingen",
        "state": "",
        "country": "DE",
        "coord": {
            "lon": 9.81722,
            "lat": 49.897781
        }
    },
    {
        "id": 2804810,
        "name": "Zell im Wiesental",
        "state": "",
        "country": "DE",
        "coord": {
            "lon": 7.85248,
            "lat": 47.705551
        }
    },
    {
        "id": 2804815,
        "name": "Mainhausen",
        "state": "",
        "country": "DE",
        "coord": {
            "lon": 8.98333,
            "lat": 50.01667
        }
    },
    {
        "id": 2804860,
        "name": "Zellberg",
        "state": "",
        "country": "DE",
        "coord": {
            "lon": 10.53333,
            "lat": 52.383331
        }
    },
    {
        "id": 2804865,
        "name": "Zell am Main",
        "state": "",
        "country": "DE",
        "coord": {
            "lon": 9.86972,
            "lat": 49.810001
        }
    },
    {
        "id": 2804867,
        "name": "Zella-Mehlis",
        "state": "",
        "country": "DE",
        "coord": {
            "lon": 10.65,
            "lat": 50.650002
        }
    },
    {
        "id": 2804876,
        "name": "Zella",
        "state": "",
        "country": "DE",
        "coord": {
            "lon": 10.11667,
            "lat": 50.666672
        }
    },
    {
        "id": 2804877,
        "name": "Zell",
        "state": "",
        "country": "DE",
        "coord": {
            "lon": 8.64917,
            "lat": 49.674999
        }
    },
    {
        "id": 2804880,
        "name": "Zell im Fichtelgebirge",
        "state": "",
        "country": "DE",
        "coord": {
            "lon": 11.82266,
            "lat": 50.135319
        }
    },
    {
        "id": 2804882,
        "name": "Zell",
        "state": "",
        "country": "DE",
        "coord": {
            "lon": 7.18333,
            "lat": 50.033329
        }
    },
    {
        "id": 2804883,
        "name": "Zell",
        "state": "",
        "country": "DE",
        "coord": {
            "lon": 10.56667,
            "lat": 49.966671
        }
    },
    {
        "id": 2804885,
        "name": "Zell",
        "state": "",
        "country": "DE",
        "coord": {
            "lon": 8.13972,
            "lat": 49.64917
        }
    },
    {
        "id": 2804895,
        "name": "Zell",
        "state": "",
        "country": "DE",
        "coord": {
            "lon": 8.06667,
            "lat": 48.700001
        }
    },
    {
        "id": 2804904,
        "name": "Zell",
        "state": "",
        "country": "DE",
        "coord": {
            "lon": 11.44732,
            "lat": 47.981071
        }
    },
    {
        "id": 2804922,
        "name": "Zeitz",
        "state": "",
        "country": "DE",
        "coord": {
            "lon": 12.15,
            "lat": 51.049999
        }
    },
    {
        "id": 2804925,
        "name": "Zeitlofs",
        "state": "",
        "country": "DE",
        "coord": {
            "lon": 9.66667,
            "lat": 50.26667
        }
    },
    {
        "id": 2804932,
        "name": "Zeitlarn",
        "state": "",
        "country": "DE",
        "coord": {
            "lon": 12.4,
            "lat": 49.333328
        }
    },
    {
        "id": 2804933,
        "name": "Zeitlarn",
        "state": "",
        "country": "DE",
        "coord": {
            "lon": 12.1,
            "lat": 49.083328
        }
    },
    {
        "id": 2804939,
        "name": "Zeithain",
        "state": "",
        "country": "DE",
        "coord": {
            "lon": 13.33809,
            "lat": 51.333561
        }
    },
    {
        "id": 2804942,
        "name": "Zeitenbach",
        "state": "",
        "country": "DE",
        "coord": {
            "lon": 7.91667,
            "lat": 50.883331
        }
    },
    {
        "id": 2804951,
        "name": "Zeiskam",
        "state": "",
        "country": "DE",
        "coord": {
            "lon": 8.24722,
            "lat": 49.23278
        }
    },
    {
        "id": 2804963,
        "name": "Zeisertsweiler",
        "state": "",
        "country": "DE",
        "coord": {
            "lon": 9.73333,
            "lat": 47.583328
        }
    },
    {
        "id": 2804979,
        "name": "Zeilsheim",
        "state": "",
        "country": "DE",
        "coord": {
            "lon": 8.5,
            "lat": 50.099998
        }
    },
    {
        "id": 2804993,
        "name": "Zeilern",
        "state": "",
        "country": "DE",
        "coord": {
            "lon": 11.92317,
            "lat": 48.20763
        }
    },
    {
        "id": 2805003,
        "name": "Zeilbach",
        "state": "",
        "country": "DE",
        "coord": {
            "lon": 9.15,
            "lat": 50.633331
        }
    },
    {
        "id": 2805006,
        "name": "Zeilarn",
        "state": "",
        "country": "DE",
        "coord": {
            "lon": 12.83333,
            "lat": 48.299999
        }
    },
    {
        "id": 2805008,
        "name": "Zeil",
        "state": "",
        "country": "DE",
        "coord": {
            "lon": 10.6,
            "lat": 50.01667
        }
    },
    {
        "id": 2805028,
        "name": "Zehren",
        "state": "",
        "country": "DE",
        "coord": {
            "lon": 13.4,
            "lat": 51.200001
        }
    },
    {
        "id": 2805038,
        "name": "Zehnruthenplan",
        "state": "",
        "country": "DE",
        "coord": {
            "lon": 13.28333,
            "lat": 52.400002
        }
    },
    {
        "id": 2805041,
        "name": "Zehnhausen bei Wallmerod",
        "state": "",
        "country": "DE",
        "coord": {
            "lon": 7.93333,
            "lat": 50.466671
        }
    },
    {
        "id": 2805042,
        "name": "Zehnhausen bei Rennerod",
        "state": "",
        "country": "DE",
        "coord": {
            "lon": 8.06667,
            "lat": 50.650002
        }
    },
    {
        "id": 2805050,
        "name": "Zehna",
        "state": "",
        "country": "DE",
        "coord": {
            "lon": 12.15,
            "lat": 53.716671
        }
    },
    {
        "id": 2805051,
        "name": "Zehmitz",
        "state": "",
        "country": "DE",
        "coord": {
            "lon": 12.11667,
            "lat": 51.666672
        }
    },
    {
        "id": 2805053,
        "name": "Zehmigkau",
        "state": "",
        "country": "DE",
        "coord": {
            "lon": 12.08333,
            "lat": 51.73333
        }
    },
    {
        "id": 2805062,
        "name": "Zehlendorf",
        "state": "",
        "country": "DE",
        "coord": {
            "lon": 13.38778,
            "lat": 52.783821
        }
    },
    {
        "id": 2805075,
        "name": "Zehdenick",
        "state": "",
        "country": "DE",
        "coord": {
            "lon": 13.33165,
            "lat": 52.978519
        }
    },
    {
        "id": 2805076,
        "name": "Zehbitz",
        "state": "",
        "country": "DE",
        "coord": {
            "lon": 12.13333,
            "lat": 51.683331
        }
    },
    {
        "id": 2805086,
        "name": "Zeestow",
        "state": "",
        "country": "DE",
        "coord": {
            "lon": 12.95923,
            "lat": 52.573009
        }
    },
    {
        "id": 2805088,
        "name": "Zeesen",
        "state": "",
        "country": "DE",
        "coord": {
            "lon": 13.63333,
            "lat": 52.26667
        }
    },
    {
        "id": 2805092,
        "name": "Zedtlitz",
        "state": "",
        "country": "DE",
        "coord": {
            "lon": 12.51667,
            "lat": 51.099998
        }
    },
    {
        "id": 2805095,
        "name": "Zedlitz",
        "state": "",
        "country": "DE",
        "coord": {
            "lon": 12.03333,
            "lat": 50.816669
        }
    },
    {
        "id": 2805103,
        "name": "Zeckern",
        "state": "",
        "country": "DE",
        "coord": {
            "lon": 10.93637,
            "lat": 49.693951
        }
    },
    {
        "id": 2805105,
        "name": "Zeckendorf",
        "state": "",
        "country": "DE",
        "coord": {
            "lon": 11.06667,
            "lat": 49.950001
        }
    },
    {
        "id": 2805106,
        "name": "Zeckenberg",
        "state": "",
        "country": "DE",
        "coord": {
            "lon": 11.93333,
            "lat": 49.950001
        }
    },
    {
        "id": 2805114,
        "name": "Zechlinerhütte",
        "state": "",
        "country": "DE",
        "coord": {
            "lon": 12.87357,
            "lat": 53.15593
        }
    },
    {
        "id": 2805119,
        "name": "Zechin",
        "state": "",
        "country": "DE",
        "coord": {
            "lon": 14.45251,
            "lat": 52.608421
        }
    },
    {
        "id": 2805138,
        "name": "Zavelstein",
        "state": "",
        "country": "DE",
        "coord": {
            "lon": 8.68907,
            "lat": 48.693958
        }
    },
    {
        "id": 2805169,
        "name": "Zauche",
        "state": "",
        "country": "DE",
        "coord": {
            "lon": 13.7,
            "lat": 51.933331
        }
    },
    {
        "id": 2805176,
        "name": "Zaschwitz",
        "state": "",
        "country": "DE",
        "coord": {
            "lon": 11.81667,
            "lat": 51.583328
        }
    },
    {
        "id": 2805182,
        "name": "Zaschendorf",
        "state": "",
        "country": "DE",
        "coord": {
            "lon": 13.91391,
            "lat": 51.017429
        }
    },
    {
        "id": 2805193,
        "name": "Zarrentin",
        "state": "",
        "country": "DE",
        "coord": {
            "lon": 10.91667,
            "lat": 53.549999
        }
    },
    {
        "id": 2805195,
        "name": "Zarrendorf",
        "state": "",
        "country": "DE",
        "coord": {
            "lon": 13.10094,
            "lat": 54.236889
        }
    },
    {
        "id": 2805198,
        "name": "Zarpen",
        "state": "",
        "country": "DE",
        "coord": {
            "lon": 10.51667,
            "lat": 53.866669
        }
    },
    {
        "id": 2805205,
        "name": "Zarnitz",
        "state": "",
        "country": "DE",
        "coord": {
            "lon": 13.73333,
            "lat": 54.01667
        }
    },
    {
        "id": 2805208,
        "name": "Zarnewanz",
        "state": "",
        "country": "DE",
        "coord": {
            "lon": 12.49223,
            "lat": 54.057831
        }
    },
    {
        "id": 2805223,
        "name": "Zappendorf",
        "state": "",
        "country": "DE",
        "coord": {
            "lon": 11.8,
            "lat": 51.5
        }
    },
    {
        "id": 2805228,
        "name": "Zapfendorf",
        "state": "",
        "country": "DE",
        "coord": {
            "lon": 10.93243,
            "lat": 50.01783
        }
    },
    {
        "id": 2805231,
        "name": "Zapel",
        "state": "",
        "country": "DE",
        "coord": {
            "lon": 11.66667,
            "lat": 53.549999
        }
    },
    {
        "id": 2805261,
        "name": "Zangberg",
        "state": "",
        "country": "DE",
        "coord": {
            "lon": 12.43333,
            "lat": 48.283329
        }
    },
    {
        "id": 2805264,
        "name": "Zandt",
        "state": "",
        "country": "DE",
        "coord": {
            "lon": 12.73333,
            "lat": 49.150002
        }
    },
    {
        "id": 2805265,
        "name": "Zandt",
        "state": "",
        "country": "DE",
        "coord": {
            "lon": 11.5,
            "lat": 48.916672
        }
    },
    {
        "id": 2805278,
        "name": "Zaisertshofen",
        "state": "",
        "country": "DE",
        "coord": {
            "lon": 10.53333,
            "lat": 48.116669
        }
    },
    {
        "id": 2805283,
        "name": "Zaisenhausen",
        "state": "",
        "country": "DE",
        "coord": {
            "lon": 8.81278,
            "lat": 49.10667
        }
    },
    {
        "id": 2805297,
        "name": "Zahsow",
        "state": "",
        "country": "DE",
        "coord": {
            "lon": 14.26667,
            "lat": 51.76667
        }
    },
    {
        "id": 2805303,
        "name": "Zahrensdorf",
        "state": "",
        "country": "DE",
        "coord": {
            "lon": 11.66667,
            "lat": 53.75
        }
    },
    {
        "id": 2805313,
        "name": "Zahna",
        "state": "",
        "country": "DE",
        "coord": {
            "lon": 12.78333,
            "lat": 51.916672
        }
    },
    {
        "id": 2805320,
        "name": "Zahlbach",
        "state": "",
        "country": "DE",
        "coord": {
            "lon": 10.0,
            "lat": 50.26667
        }
    },
    {
        "id": 2805329,
        "name": "Zadelsdorf",
        "state": "",
        "country": "DE",
        "coord": {
            "lon": 11.94081,
            "lat": 50.666
        }
    },
    {
        "id": 2805330,
        "name": "Zadels",
        "state": "",
        "country": "DE",
        "coord": {
            "lon": 10.38333,
            "lat": 47.900002
        }
    },
    {
        "id": 2805334,
        "name": "Zacking",
        "state": "",
        "country": "DE",
        "coord": {
            "lon": 12.31667,
            "lat": 47.866669
        }
    },
    {
        "id": 2805346,
        "name": "Zachow",
        "state": "",
        "country": "DE",
        "coord": {
            "lon": 12.78333,
            "lat": 52.48333
        }
    },
    {
        "id": 2805347,
        "name": "Zachersdorf",
        "state": "",
        "country": "DE",
        "coord": {
            "lon": 12.66667,
            "lat": 49.0
        }
    },
    {
        "id": 2805354,
        "name": "Zachenberg",
        "state": "",
        "country": "DE",
        "coord": {
            "lon": 13.0,
            "lat": 48.966671
        }
    },
    {
        "id": 2805361,
        "name": "Zaberfeld",
        "state": "",
        "country": "DE",
        "coord": {
            "lon": 8.92694,
            "lat": 49.05611
        }
    },
    {
        "id": 2805365,
        "name": "Zabeltitz",
        "state": "",
        "country": "DE",
        "coord": {
            "lon": 13.5,
            "lat": 51.349998
        }
    },
    {
        "id": 2805370,
        "name": "Zabakuck",
        "state": "",
        "country": "DE",
        "coord": {
            "lon": 12.21667,
            "lat": 52.450001
        }
    },
    {
        "id": 2805385,
        "name": "Xanten",
        "state": "",
        "country": "DE",
        "coord": {
            "lon": 6.45,
            "lat": 51.666672
        }
    },
    {
        "id": 2805388,
        "name": "Wymeer",
        "state": "",
        "country": "DE",
        "coord": {
            "lon": 7.21667,
            "lat": 53.133331
        }
    },
    {
        "id": 2805396,
        "name": "Wyk auf Föhr",
        "state": "",
        "country": "DE",
        "coord": {
            "lon": 8.56702,
            "lat": 54.691399
        }
    },
    {
        "id": 2805400,
        "name": "Wyhl",
        "state": "",
        "country": "DE",
        "coord": {
            "lon": 7.65,
            "lat": 48.166672
        }
    },
    {
        "id": 2805419,
        "name": "Wutöschingen",
        "state": "",
        "country": "DE",
        "coord": {
            "lon": 8.36667,
            "lat": 47.666672
        }
    },
    {
        "id": 2805448,
        "name": "Wustrow",
        "state": "",
        "country": "DE",
        "coord": {
            "lon": 13.15,
            "lat": 53.48333
        }
    },
    {
        "id": 2805449,
        "name": "Wustrow",
        "state": "",
        "country": "DE",
        "coord": {
            "lon": 12.9697,
            "lat": 53.228031
        }
    },
    {
        "id": 2805451,
        "name": "Wustrow",
        "state": "",
        "country": "DE",
        "coord": {
            "lon": 11.12846,
            "lat": 52.923698
        }
    },
    {
        "id": 2805463,
        "name": "Wüstheuterode",
        "state": "",
        "country": "DE",
        "coord": {
            "lon": 10.06667,
            "lat": 51.316669
        }
    },
    {
        "id": 2805475,
        "name": "Wusterwitz",
        "state": "",
        "country": "DE",
        "coord": {
            "lon": 12.4,
            "lat": 52.383331
        }
    },
    {
        "id": 2805480,
        "name": "Wustermark",
        "state": "",
        "country": "DE",
        "coord": {
            "lon": 12.95,
            "lat": 52.549999
        }
    },
    {
        "id": 2805481,
        "name": "Wusterhusen",
        "state": "",
        "country": "DE",
        "coord": {
            "lon": 13.61667,
            "lat": 54.116669
        }
    },
    {
        "id": 2805483,
        "name": "Wusterhausen",
        "state": "",
        "country": "DE",
        "coord": {
            "lon": 12.46021,
            "lat": 52.891201
        }
    },
    {
        "id": 2805494,
        "name": "Wüstenselbitz",
        "state": "",
        "country": "DE",
        "coord": {
            "lon": 11.7,
            "lat": 50.216671
        }
    },
    {
        "id": 2805496,
        "name": "Wüstensachsen",
        "state": "",
        "country": "DE",
        "coord": {
            "lon": 10.00382,
            "lat": 50.500381
        }
    },
    {
        "id": 2805497,
        "name": "Wüstenrot",
        "state": "",
        "country": "DE",
        "coord": {
            "lon": 9.46056,
            "lat": 49.08083
        }
    },
    {
        "id": 2805499,
        "name": "Wüstenmark",
        "state": "",
        "country": "DE",
        "coord": {
            "lon": 11.25,
            "lat": 53.76667
        }
    },
    {
        "id": 2805522,
        "name": "Wüstenfelde",
        "state": "",
        "country": "DE",
        "coord": {
            "lon": 13.14514,
            "lat": 53.944172
        }
    },
    {
        "id": 2805548,
        "name": "Wüsten",
        "state": "",
        "country": "DE",
        "coord": {
            "lon": 8.78949,
            "lat": 52.101601
        }
    },
    {
        "id": 2805568,
        "name": "Wust",
        "state": "",
        "country": "DE",
        "coord": {
            "lon": 12.61667,
            "lat": 52.416672
        }
    },
    {
        "id": 2805579,
        "name": "Wuschlaub",
        "state": "",
        "country": "DE",
        "coord": {
            "lon": 12.13333,
            "lat": 51.183331
        }
    },
    {
        "id": 2805580,
        "name": "Wüschheim",
        "state": "",
        "country": "DE",
        "coord": {
            "lon": 6.81667,
            "lat": 50.700001
        }
    },
    {
        "id": 2805581,
        "name": "Wüschheim",
        "state": "",
        "country": "DE",
        "coord": {
            "lon": 7.41667,
            "lat": 50.01667
        }
    },
    {
        "id": 2805586,
        "name": "Würzweiler",
        "state": "",
        "country": "DE",
        "coord": {
            "lon": 7.86667,
            "lat": 49.650002
        }
    },
    {
        "id": 2805597,
        "name": "Wurzen",
        "state": "",
        "country": "DE",
        "coord": {
            "lon": 12.73333,
            "lat": 51.366669
        }
    },
    {
        "id": 2805615,
        "name": "Würzburg",
        "state": "",
        "country": "DE",
        "coord": {
            "lon": 9.93611,
            "lat": 49.787781
        }
    },
    {
        "id": 2805618,
        "name": "Würzberg",
        "state": "",
        "country": "DE",
        "coord": {
            "lon": 9.08111,
            "lat": 49.652779
        }
    },
    {
        "id": 2805623,
        "name": "Wurzbach",
        "state": "",
        "country": "DE",
        "coord": {
            "lon": 11.53333,
            "lat": 50.466671
        }
    },
    {
        "id": 2805641,
        "name": "Wursterheide",
        "state": "",
        "country": "DE",
        "coord": {
            "lon": 8.63333,
            "lat": 53.76667
        }
    },
    {
        "id": 2805644,
        "name": "Würselen",
        "state": "",
        "country": "DE",
        "coord": {
            "lon": 6.13333,
            "lat": 50.816669
        }
    },
    {
        "id": 2805645,
        "name": "Würschwitz",
        "state": "",
        "country": "DE",
        "coord": {
            "lon": 12.80903,
            "lat": 51.267391
        }
    },
    {
        "id": 2805649,
        "name": "Wurschen",
        "state": "",
        "country": "DE",
        "coord": {
            "lon": 14.58333,
            "lat": 51.183331
        }
    },
    {
        "id": 2805652,
        "name": "Würrich",
        "state": "",
        "country": "DE",
        "coord": {
            "lon": 7.3,
            "lat": 49.98333
        }
    },
    {
        "id": 2805653,
        "name": "Wurp",
        "state": "",
        "country": "DE",
        "coord": {
            "lon": 12.05,
            "lat": 51.566669
        }
    },
    {
        "id": 2805657,
        "name": "Wurmsham",
        "state": "",
        "country": "DE",
        "coord": {
            "lon": 12.33333,
            "lat": 48.349998
        }
    },
    {
        "id": 2805666,
        "name": "Wurmlingen",
        "state": "",
        "country": "DE",
        "coord": {
            "lon": 8.9633,
            "lat": 48.503639
        }
    },
    {
        "id": 2805667,
        "name": "Wurmlingen",
        "state": "",
        "country": "DE",
        "coord": {
            "lon": 8.78333,
            "lat": 48.0
        }
    },
    {
        "id": 2805677,
        "name": "Wurmberg",
        "state": "",
        "country": "DE",
        "coord": {
            "lon": 8.81667,
            "lat": 48.866669
        }
    },
    {
        "id": 2805694,
        "name": "Wurmannsquick",
        "state": "",
        "country": "DE",
        "coord": {
            "lon": 12.78333,
            "lat": 48.349998
        }
    },
    {
        "id": 2805708,
        "name": "Würges",
        "state": "",
        "country": "DE",
        "coord": {
            "lon": 8.28333,
            "lat": 50.283329
        }
    },
    {
        "id": 2805722,
        "name": "Würding",
        "state": "",
        "country": "DE",
        "coord": {
            "lon": 13.3495,
            "lat": 48.353909
        }
    },
    {
        "id": 2805727,
        "name": "Würchwitz",
        "state": "",
        "country": "DE",
        "coord": {
            "lon": 12.22744,
            "lat": 51.019051
        }
    },
    {
        "id": 2805728,
        "name": "Würchhausen",
        "state": "",
        "country": "DE",
        "coord": {
            "lon": 11.68333,
            "lat": 51.033329
        }
    },
    {
        "id": 2805753,
        "name": "Wuppertal",
        "state": "",
        "country": "DE",
        "coord": {
            "lon": 7.18333,
            "lat": 51.26667
        }
    },
    {
        "id": 2805761,
        "name": "Wunstorf",
        "state": "",
        "country": "DE",
        "coord": {
            "lon": 9.41667,
            "lat": 52.433331
        }
    },
    {
        "id": 2805762,
        "name": "Wunsiedel",
        "state": "",
        "country": "DE",
        "coord": {
            "lon": 12.01667,
            "lat": 50.033329
        }
    },
    {
        "id": 2805773,
        "name": "Wünschendorf",
        "state": "",
        "country": "DE",
        "coord": {
            "lon": 12.1,
            "lat": 50.799999
        }
    },
    {
        "id": 2805776,
        "name": "Wunschenberg",
        "state": "",
        "country": "DE",
        "coord": {
            "lon": 11.95,
            "lat": 49.900002
        }
    },
    {
        "id": 2805785,
        "name": "Wünnenberg",
        "state": "",
        "country": "DE",
        "coord": {
            "lon": 8.7,
            "lat": 51.51667
        }
    },
    {
        "id": 2805793,
        "name": "Wundersleben",
        "state": "",
        "country": "DE",
        "coord": {
            "lon": 11.03333,
            "lat": 51.150002
        }
    },
    {
        "id": 2805814,
        "name": "Wümbach",
        "state": "",
        "country": "DE",
        "coord": {
            "lon": 10.98333,
            "lat": 50.700001
        }
    },
    {
        "id": 2805825,
        "name": "Wulsbüttel",
        "state": "",
        "country": "DE",
        "coord": {
            "lon": 8.66667,
            "lat": 53.316669
        }
    },
    {
        "id": 2805844,
        "name": "Wullenstetten",
        "state": "",
        "country": "DE",
        "coord": {
            "lon": 10.06667,
            "lat": 48.316669
        }
    },
    {
        "id": 2805853,
        "name": "Wulksfelde",
        "state": "",
        "country": "DE",
        "coord": {
            "lon": 10.11096,
            "lat": 53.718319
        }
    },
    {
        "id": 2805861,
        "name": "Wülknitz",
        "state": "",
        "country": "DE",
        "coord": {
            "lon": 13.4,
            "lat": 51.366669
        }
    },
    {
        "id": 2805865,
        "name": "Wulkenzin",
        "state": "",
        "country": "DE",
        "coord": {
            "lon": 13.16667,
            "lat": 53.533329
        }
    },
    {
        "id": 2805866,
        "name": "Wulkau",
        "state": "",
        "country": "DE",
        "coord": {
            "lon": 12.07415,
            "lat": 52.761021
        }
    },
    {
        "id": 2805870,
        "name": "Wulften",
        "state": "",
        "country": "DE",
        "coord": {
            "lon": 10.17437,
            "lat": 51.659988
        }
    },
    {
        "id": 2805874,
        "name": "Wulfstorf",
        "state": "",
        "country": "DE",
        "coord": {
            "lon": 10.52396,
            "lat": 53.179859
        }
    },
    {
        "id": 2805877,
        "name": "Wulfsmoor",
        "state": "",
        "country": "DE",
        "coord": {
            "lon": 9.72402,
            "lat": 53.912331
        }
    },
    {
        "id": 2805891,
        "name": "Wulfsen",
        "state": "",
        "country": "DE",
        "coord": {
            "lon": 10.15,
            "lat": 53.299999
        }
    },
    {
        "id": 2805895,
        "name": "Wulfsdorf",
        "state": "",
        "country": "DE",
        "coord": {
            "lon": 10.21667,
            "lat": 53.666672
        }
    },
    {
        "id": 2805910,
        "name": "Wülfrath",
        "state": "",
        "country": "DE",
        "coord": {
            "lon": 7.05,
            "lat": 51.283329
        }
    },
    {
        "id": 2805913,
        "name": "Wülfingerode",
        "state": "",
        "country": "DE",
        "coord": {
            "lon": 10.51667,
            "lat": 51.400002
        }
    },
    {
        "id": 2805916,
        "name": "Wulfing",
        "state": "",
        "country": "DE",
        "coord": {
            "lon": 12.56667,
            "lat": 49.216671
        }
    },
    {
        "id": 2805921,
        "name": "Wulfhagen",
        "state": "",
        "country": "DE",
        "coord": {
            "lon": 9.18333,
            "lat": 52.349998
        }
    },
    {
        "id": 2805923,
        "name": "Wulfeshohl",
        "state": "",
        "country": "DE",
        "coord": {
            "lon": 7.25,
            "lat": 51.26667
        }
    },
    {
        "id": 2805925,
        "name": "Wulferstedt",
        "state": "",
        "country": "DE",
        "coord": {
            "lon": 11.13333,
            "lat": 52.01667
        }
    },
    {
        "id": 2805927,
        "name": "Wülfershausen",
        "state": "",
        "country": "DE",
        "coord": {
            "lon": 11.08333,
            "lat": 50.849998
        }
    },
    {
        "id": 2805929,
        "name": "Wülfershausen",
        "state": "",
        "country": "DE",
        "coord": {
            "lon": 9.99902,
            "lat": 50.054161
        }
    },
    {
        "id": 2805933,
        "name": "Wülferode",
        "state": "",
        "country": "DE",
        "coord": {
            "lon": 9.85,
            "lat": 52.333328
        }
    },
    {
        "id": 2805945,
        "name": "Wulfen",
        "state": "",
        "country": "DE",
        "coord": {
            "lon": 11.93333,
            "lat": 51.816669
        }
    },
    {
        "id": 2805988,
        "name": "Wrohm",
        "state": "",
        "country": "DE",
        "coord": {
            "lon": 9.4,
            "lat": 54.216671
        }
    },
    {
        "id": 2805992,
        "name": "Wrixum",
        "state": "",
        "country": "DE",
        "coord": {
            "lon": 8.54856,
            "lat": 54.699928
        }
    },
    {
        "id": 2805994,
        "name": "Wrist",
        "state": "",
        "country": "DE",
        "coord": {
            "lon": 9.76667,
            "lat": 53.933331
        }
    },
    {
        "id": 2805998,
        "name": "Wrisbergholzen",
        "state": "",
        "country": "DE",
        "coord": {
            "lon": 9.91667,
            "lat": 52.049999
        }
    },
    {
        "id": 2805999,
        "name": "Wriezen",
        "state": "",
        "country": "DE",
        "coord": {
            "lon": 14.13425,
            "lat": 52.720909
        }
    },
    {
        "id": 2806002,
        "name": "Wriedel",
        "state": "",
        "country": "DE",
        "coord": {
            "lon": 10.29848,
            "lat": 53.0313
        }
    },
    {
        "id": 2806004,
        "name": "Wrexen",
        "state": "",
        "country": "DE",
        "coord": {
            "lon": 8.99849,
            "lat": 51.509602
        }
    },
    {
        "id": 2806007,
        "name": "Wrestedt",
        "state": "",
        "country": "DE",
        "coord": {
            "lon": 10.57494,
            "lat": 52.90435
        }
    },
    {
        "id": 2806010,
        "name": "Wremerbüttel",
        "state": "",
        "country": "DE",
        "coord": {
            "lon": 8.51667,
            "lat": 53.650002
        }
    },
    {
        "id": 2806011,
        "name": "Wremen",
        "state": "",
        "country": "DE",
        "coord": {
            "lon": 8.51667,
            "lat": 53.650002
        }
    },
    {
        "id": 2806015,
        "name": "Wredenhagen",
        "state": "",
        "country": "DE",
        "coord": {
            "lon": 12.5172,
            "lat": 53.29026
        }
    },
    {
        "id": 2806023,
        "name": "Wrangelsburg",
        "state": "",
        "country": "DE",
        "coord": {
            "lon": 13.6,
            "lat": 54.01667
        }
    },
    {
        "id": 2806066,
        "name": "Woserin",
        "state": "",
        "country": "DE",
        "coord": {
            "lon": 12.00497,
            "lat": 53.66814
        }
    },
    {
        "id": 2806070,
        "name": "Worzeldorf",
        "state": "",
        "country": "DE",
        "coord": {
            "lon": 11.1,
            "lat": 49.366669
        }
    },
    {
        "id": 2806072,
        "name": "Wörthsee",
        "state": "",
        "country": "DE",
        "coord": {
            "lon": 11.20176,
            "lat": 48.063049
        }
    },
    {
        "id": 2806079,
        "name": "Wörth an der Isar",
        "state": "",
        "country": "DE",
        "coord": {
            "lon": 12.35,
            "lat": 48.616669
        }
    },
    {
        "id": 2806080,
        "name": "Wörth an der Donau",
        "state": "",
        "country": "DE",
        "coord": {
            "lon": 12.4,
            "lat": 49.01667
        }
    },
    {
        "id": 2806081,
        "name": "Wörth am Rhein",
        "state": "",
        "country": "DE",
        "coord": {
            "lon": 8.24861,
            "lat": 49.05806
        }
    },
    {
        "id": 2806082,
        "name": "Wörth am Main",
        "state": "",
        "country": "DE",
        "coord": {
            "lon": 9.15389,
            "lat": 49.79472
        }
    },
    {
        "id": 2806083,
        "name": "Worth",
        "state": "",
        "country": "DE",
        "coord": {
            "lon": 10.41667,
            "lat": 53.466671
        }
    },
    {
        "id": 2806085,
        "name": "Worth",
        "state": "",
        "country": "DE",
        "coord": {
            "lon": 7.65,
            "lat": 51.216671
        }
    },
    {
        "id": 2806095,
        "name": "Wortelstetten",
        "state": "",
        "country": "DE",
        "coord": {
            "lon": 10.75,
            "lat": 48.583328
        }
    },
    {
        "id": 2806097,
        "name": "Wört",
        "state": "",
        "country": "DE",
        "coord": {
            "lon": 10.27239,
            "lat": 49.030472
        }
    },
    {
        "id": 2806099,
        "name": "Wörsdorf",
        "state": "",
        "country": "DE",
        "coord": {
            "lon": 7.95,
            "lat": 50.533329
        }
    },
    {
        "id": 2806105,
        "name": "Wörrstadt",
        "state": "",
        "country": "DE",
        "coord": {
            "lon": 8.12417,
            "lat": 49.84861
        }
    },
    {
        "id": 2806108,
        "name": "Worpswede",
        "state": "",
        "country": "DE",
        "coord": {
            "lon": 8.93333,
            "lat": 53.216671
        }
    },
    {
        "id": 2806127,
        "name": "Wörnersberg",
        "state": "",
        "country": "DE",
        "coord": {
            "lon": 8.56667,
            "lat": 48.566669
        }
    },
    {
        "id": 2806134,
        "name": "Wormsthal",
        "state": "",
        "country": "DE",
        "coord": {
            "lon": 9.26667,
            "lat": 52.25
        }
    },
    {
        "id": 2806135,
        "name": "Wormstedt",
        "state": "",
        "country": "DE",
        "coord": {
            "lon": 11.6,
            "lat": 51.033329
        }
    },
    {
        "id": 2806136,
        "name": "Wormsleben",
        "state": "",
        "country": "DE",
        "coord": {
            "lon": 11.63333,
            "lat": 51.51667
        }
    },
    {
        "id": 2806141,
        "name": "Wormsdorf",
        "state": "",
        "country": "DE",
        "coord": {
            "lon": 11.19335,
            "lat": 52.133701
        }
    },
    {
        "id": 2806142,
        "name": "Worms",
        "state": "",
        "country": "DE",
        "coord": {
            "lon": 8.35972,
            "lat": 49.635559
        }
    },
    {
        "id": 2806144,
        "name": "Wörmlitz",
        "state": "",
        "country": "DE",
        "coord": {
            "lon": 11.85,
            "lat": 52.166672
        }
    },
    {
        "id": 2806148,
        "name": "Wormersdorf",
        "state": "",
        "country": "DE",
        "coord": {
            "lon": 6.98911,
            "lat": 50.604382
        }
    },
    {
        "id": 2806149,
        "name": "Wörmersdorf",
        "state": "",
        "country": "DE",
        "coord": {
            "lon": 11.2,
            "lat": 48.950001
        }
    },
    {
        "id": 2806162,
        "name": "Wörlitz",
        "state": "",
        "country": "DE",
        "coord": {
            "lon": 12.41667,
            "lat": 51.833328
        }
    },
    {
        "id": 2806165,
        "name": "Wörleschwang",
        "state": "",
        "country": "DE",
        "coord": {
            "lon": 10.6,
            "lat": 48.433331
        }
    },
    {
        "id": 2806173,
        "name": "Woringen",
        "state": "",
        "country": "DE",
        "coord": {
            "lon": 10.2,
            "lat": 47.916672
        }
    },
    {
        "id": 2806174,
        "name": "Worin",
        "state": "",
        "country": "DE",
        "coord": {
            "lon": 14.26667,
            "lat": 52.51667
        }
    },
    {
        "id": 2806176,
        "name": "Worfelden",
        "state": "",
        "country": "DE",
        "coord": {
            "lon": 8.54861,
            "lat": 49.928059
        }
    },
    {
        "id": 2806187,
        "name": "Wörbzig",
        "state": "",
        "country": "DE",
        "coord": {
            "lon": 11.9,
            "lat": 51.716671
        }
    },
    {
        "id": 2806190,
        "name": "Worblingen",
        "state": "",
        "country": "DE",
        "coord": {
            "lon": 8.86667,
            "lat": 47.73333
        }
    },
    {
        "id": 2806192,
        "name": "Worbis",
        "state": "",
        "country": "DE",
        "coord": {
            "lon": 10.36667,
            "lat": 51.416672
        }
    },
    {
        "id": 2806194,
        "name": "Woquard",
        "state": "",
        "country": "DE",
        "coord": {
            "lon": 7.1,
            "lat": 53.433331
        }
    },
    {
        "id": 2806201,
        "name": "Wöpplinsberg",
        "state": "",
        "country": "DE",
        "coord": {
            "lon": 7.85419,
            "lat": 48.135738
        }
    },
    {
        "id": 2806205,
        "name": "Woppenroth",
        "state": "",
        "country": "DE",
        "coord": {
            "lon": 7.41667,
            "lat": 49.866669
        }
    },
    {
        "id": 2806207,
        "name": "Woppenrieth",
        "state": "",
        "country": "DE",
        "coord": {
            "lon": 12.3,
            "lat": 49.566669
        }
    },
    {
        "id": 2806216,
        "name": "Wootz",
        "state": "",
        "country": "DE",
        "coord": {
            "lon": 11.35351,
            "lat": 53.066292
        }
    },
    {
        "id": 2806231,
        "name": "Wonsheim",
        "state": "",
        "country": "DE",
        "coord": {
            "lon": 7.96667,
            "lat": 49.783329
        }
    },
    {
        "id": 2806232,
        "name": "Wonsees",
        "state": "",
        "country": "DE",
        "coord": {
            "lon": 11.3,
            "lat": 49.98333
        }
    },
    {
        "id": 2806239,
        "name": "Wonfurt",
        "state": "",
        "country": "DE",
        "coord": {
            "lon": 10.46667,
            "lat": 50.01667
        }
    },
    {
        "id": 2806244,
        "name": "Womrath",
        "state": "",
        "country": "DE",
        "coord": {
            "lon": 7.45,
            "lat": 49.916672
        }
    },
    {
        "id": 2806251,
        "name": "Wölzow",
        "state": "",
        "country": "DE",
        "coord": {
            "lon": 11.12044,
            "lat": 53.498932
        }
    },
    {
        "id": 2806255,
        "name": "Wolzhausen",
        "state": "",
        "country": "DE",
        "coord": {
            "lon": 8.46667,
            "lat": 50.866669
        }
    },
    {
        "id": 2806275,
        "name": "Woltershausen",
        "state": "",
        "country": "DE",
        "coord": {
            "lon": 9.96667,
            "lat": 51.966671
        }
    },
    {
        "id": 2806276,
        "name": "Woltershausen",
        "state": "",
        "country": "DE",
        "coord": {
            "lon": 9.95,
            "lat": 51.98333
        }
    },
    {
        "id": 2806283,
        "name": "Woltersdorf",
        "state": "",
        "country": "DE",
        "coord": {
            "lon": 10.63333,
            "lat": 53.583328
        }
    },
    {
        "id": 2806285,
        "name": "Woltersdorf",
        "state": "",
        "country": "DE",
        "coord": {
            "lon": 11.21667,
            "lat": 52.950001
        }
    },
    {
        "id": 2806287,
        "name": "Woltersdorf",
        "state": "",
        "country": "DE",
        "coord": {
            "lon": 13.76667,
            "lat": 52.450001
        }
    },
    {
        "id": 2806295,
        "name": "Wolteritz",
        "state": "",
        "country": "DE",
        "coord": {
            "lon": 12.33333,
            "lat": 51.450001
        }
    },
    {
        "id": 2806304,
        "name": "Wolsier",
        "state": "",
        "country": "DE",
        "coord": {
            "lon": 12.26769,
            "lat": 52.71545
        }
    },
    {
        "id": 2806307,
        "name": "Wolsfeld",
        "state": "",
        "country": "DE",
        "coord": {
            "lon": 6.46597,
            "lat": 49.907021
        }
    },
    {
        "id": 2806310,
        "name": "Wolsdorf",
        "state": "",
        "country": "DE",
        "coord": {
            "lon": 10.93878,
            "lat": 52.190979
        }
    },
    {
        "id": 2806320,
        "name": "Wölpinghausen",
        "state": "",
        "country": "DE",
        "coord": {
            "lon": 9.23333,
            "lat": 52.416672
        }
    },
    {
        "id": 2806322,
        "name": "Wolpertswende",
        "state": "",
        "country": "DE",
        "coord": {
            "lon": 9.61667,
            "lat": 47.900002
        }
    },
    {
        "id": 2806323,
        "name": "Wolpertstetten",
        "state": "",
        "country": "DE",
        "coord": {
            "lon": 10.61667,
            "lat": 48.666672
        }
    },
    {
        "id": 2806325,
        "name": "Wolpertshausen",
        "state": "",
        "country": "DE",
        "coord": {
            "lon": 9.84472,
            "lat": 49.1675
        }
    },
    {
        "id": 2806331,
        "name": "Wölpern",
        "state": "",
        "country": "DE",
        "coord": {
            "lon": 12.58175,
            "lat": 51.43914
        }
    },
    {
        "id": 2806333,
        "name": "Wolperath",
        "state": "",
        "country": "DE",
        "coord": {
            "lon": 7.31667,
            "lat": 50.833328
        }
    },
    {
        "id": 2806339,
        "name": "Wolnzach",
        "state": "",
        "country": "DE",
        "coord": {
            "lon": 11.62568,
            "lat": 48.603802
        }
    },
    {
        "id": 2806342,
        "name": "Wolmirstedt",
        "state": "",
        "country": "DE",
        "coord": {
            "lon": 11.63333,
            "lat": 52.25
        }
    },
    {
        "id": 2806343,
        "name": "Wolmirsleben",
        "state": "",
        "country": "DE",
        "coord": {
            "lon": 11.48333,
            "lat": 51.950001
        }
    },
    {
        "id": 2806345,
        "name": "Wölmersen",
        "state": "",
        "country": "DE",
        "coord": {
            "lon": 7.6,
            "lat": 50.716671
        }
    },
    {
        "id": 2806346,
        "name": "Wolmersdorf",
        "state": "",
        "country": "DE",
        "coord": {
            "lon": 9.11667,
            "lat": 54.083328
        }
    },
    {
        "id": 2806353,
        "name": "Wöllstein",
        "state": "",
        "country": "DE",
        "coord": {
            "lon": 7.96667,
            "lat": 49.816669
        }
    },
    {
        "id": 2806358,
        "name": "Wöllsdorf",
        "state": "",
        "country": "DE",
        "coord": {
            "lon": 13.03333,
            "lat": 51.133331
        }
    },
    {
        "id": 2806371,
        "name": "Wöllnau",
        "state": "",
        "country": "DE",
        "coord": {
            "lon": 12.70466,
            "lat": 51.54377
        }
    },
    {
        "id": 2806377,
        "name": "Wollmerschied",
        "state": "",
        "country": "DE",
        "coord": {
            "lon": 7.85,
            "lat": 50.116669
        }
    },
    {
        "id": 2806380,
        "name": "Wollmerath",
        "state": "",
        "country": "DE",
        "coord": {
            "lon": 6.98333,
            "lat": 50.150002
        }
    },
    {
        "id": 2806382,
        "name": "Wollmatingen",
        "state": "",
        "country": "DE",
        "coord": {
            "lon": 9.14595,
            "lat": 47.692261
        }
    },
    {
        "id": 2806385,
        "name": "Wollmar",
        "state": "",
        "country": "DE",
        "coord": {
            "lon": 8.68333,
            "lat": 50.966671
        }
    },
    {
        "id": 2806392,
        "name": "Wollishausen",
        "state": "",
        "country": "DE",
        "coord": {
            "lon": 10.70661,
            "lat": 48.320251
        }
    },
    {
        "id": 2806399,
        "name": "Wollin",
        "state": "",
        "country": "DE",
        "coord": {
            "lon": 12.46667,
            "lat": 52.283329
        }
    },
    {
        "id": 2806409,
        "name": "Wollersleben",
        "state": "",
        "country": "DE",
        "coord": {
            "lon": 10.71667,
            "lat": 51.433331
        }
    },
    {
        "id": 2806414,
        "name": "Wollershausen",
        "state": "",
        "country": "DE",
        "coord": {
            "lon": 10.25,
            "lat": 51.599998
        }
    },
    {
        "id": 2806439,
        "name": "Wollbrandshausen",
        "state": "",
        "country": "DE",
        "coord": {
            "lon": 10.16667,
            "lat": 51.583328
        }
    },
    {
        "id": 2806442,
        "name": "Wollbach",
        "state": "",
        "country": "DE",
        "coord": {
            "lon": 10.23333,
            "lat": 50.366669
        }
    },
    {
        "id": 2806451,
        "name": "Wolkshausen",
        "state": "",
        "country": "DE",
        "coord": {
            "lon": 9.9775,
            "lat": 49.627499
        }
    },
    {
        "id": 2806453,
        "name": "Wolkramshausen",
        "state": "",
        "country": "DE",
        "coord": {
            "lon": 10.75,
            "lat": 51.416672
        }
    },
    {
        "id": 2806458,
        "name": "Wölkham",
        "state": "",
        "country": "DE",
        "coord": {
            "lon": 12.55,
            "lat": 48.116669
        }
    },
    {
        "id": 2806471,
        "name": "Wolkering",
        "state": "",
        "country": "DE",
        "coord": {
            "lon": 12.18573,
            "lat": 47.879688
        }
    },
    {
        "id": 2806474,
        "name": "Wolkenstein",
        "state": "",
        "country": "DE",
        "coord": {
            "lon": 13.08333,
            "lat": 50.650002
        }
    },
    {
        "id": 2806489,
        "name": "Wolken",
        "state": "",
        "country": "DE",
        "coord": {
            "lon": 7.46667,
            "lat": 50.333328
        }
    },
    {
        "id": 2806501,
        "name": "Wolgast",
        "state": "",
        "country": "DE",
        "coord": {
            "lon": 13.76667,
            "lat": 54.049999
        }
    },
    {
        "id": 2806523,
        "name": "Wolfstein",
        "state": "",
        "country": "DE",
        "coord": {
            "lon": 7.6,
            "lat": 49.583328
        }
    },
    {
        "id": 2806548,
        "name": "Wolfsmünster",
        "state": "",
        "country": "DE",
        "coord": {
            "lon": 9.73333,
            "lat": 50.083328
        }
    },
    {
        "id": 2806559,
        "name": "Wolfskuhle",
        "state": "",
        "country": "DE",
        "coord": {
            "lon": 7.20033,
            "lat": 51.237049
        }
    },
    {
        "id": 2806575,
        "name": "Wolfskofen",
        "state": "",
        "country": "DE",
        "coord": {
            "lon": 12.25,
            "lat": 48.98333
        }
    },
    {
        "id": 2806576,
        "name": "Wolfskehlen",
        "state": "",
        "country": "DE",
        "coord": {
            "lon": 8.50056,
            "lat": 49.853062
        }
    },
    {
        "id": 2806596,
        "name": "Wolfsheim",
        "state": "",
        "country": "DE",
        "coord": {
            "lon": 8.03944,
            "lat": 49.872219
        }
    },
    {
        "id": 2806607,
        "name": "Wolfshagen",
        "state": "",
        "country": "DE",
        "coord": {
            "lon": 12.8425,
            "lat": 54.22691
        }
    },
    {
        "id": 2806610,
        "name": "Wolfshagen",
        "state": "",
        "country": "DE",
        "coord": {
            "lon": 10.31951,
            "lat": 51.909279
        }
    },
    {
        "id": 2806629,
        "name": "Wolfsfelde",
        "state": "",
        "country": "DE",
        "coord": {
            "lon": 11.63555,
            "lat": 52.079079
        }
    },
    {
        "id": 2806633,
        "name": "Wolfsegg",
        "state": "",
        "country": "DE",
        "coord": {
            "lon": 11.9781,
            "lat": 49.107311
        }
    },
    {
        "id": 2806646,
        "name": "Wolfschlugen",
        "state": "",
        "country": "DE",
        "coord": {
            "lon": 9.28333,
            "lat": 48.650002
        }
    },
    {
        "id": 2806650,
        "name": "Wolfsburg-Unkeroda",
        "state": "",
        "country": "DE",
        "coord": {
            "lon": 10.26667,
            "lat": 50.933331
        }
    },
    {
        "id": 2806654,
        "name": "Wolfsburg",
        "state": "",
        "country": "DE",
        "coord": {
            "lon": 10.8,
            "lat": 52.433331
        }
    },
    {
        "id": 2806655,
        "name": "Wolfsburg",
        "state": "",
        "country": "DE",
        "coord": {
            "lon": 10.26667,
            "lat": 50.933331
        }
    },
    {
        "id": 2806674,
        "name": "Wolfsbronn",
        "state": "",
        "country": "DE",
        "coord": {
            "lon": 10.8,
            "lat": 49.01667
        }
    },
    {
        "id": 2806686,
        "name": "Wolfsberg",
        "state": "",
        "country": "DE",
        "coord": {
            "lon": 10.36667,
            "lat": 50.783329
        }
    },
    {
        "id": 2806746,
        "name": "Wolfsbehringen",
        "state": "",
        "country": "DE",
        "coord": {
            "lon": 10.48333,
            "lat": 51.0
        }
    },
    {
        "id": 2806768,
        "name": "Wolfratshausen",
        "state": "",
        "country": "DE",
        "coord": {
            "lon": 11.42166,
            "lat": 47.912891
        }
    },
    {
        "id": 2806769,
        "name": "Wolframshof",
        "state": "",
        "country": "DE",
        "coord": {
            "lon": 11.88333,
            "lat": 49.833328
        }
    },
    {
        "id": 2806770,
        "name": "Wolframs-Eschenbach",
        "state": "",
        "country": "DE",
        "coord": {
            "lon": 10.73333,
            "lat": 49.23333
        }
    },
    {
        "id": 2806775,
        "name": "Wolfmannshausen",
        "state": "",
        "country": "DE",
        "coord": {
            "lon": 10.46667,
            "lat": 50.433331
        }
    },
    {
        "id": 2806788,
        "name": "Wölfis",
        "state": "",
        "country": "DE",
        "coord": {
            "lon": 10.78333,
            "lat": 50.816669
        }
    },
    {
        "id": 2806790,
        "name": "Wölfing",
        "state": "",
        "country": "DE",
        "coord": {
            "lon": 11.71667,
            "lat": 48.48333
        }
    },
    {
        "id": 2806793,
        "name": "Wolfholz",
        "state": "",
        "country": "DE",
        "coord": {
            "lon": 10.5,
            "lat": 47.849998
        }
    },
    {
        "id": 2806799,
        "name": "Wolfhagen",
        "state": "",
        "country": "DE",
        "coord": {
            "lon": 9.17015,
            "lat": 51.326111
        }
    },
    {
        "id": 2806802,
        "name": "Wolfgruben",
        "state": "",
        "country": "DE",
        "coord": {
            "lon": 8.53333,
            "lat": 50.866669
        }
    },
    {
        "id": 2806831,
        "name": "Wolfertschwenden",
        "state": "",
        "country": "DE",
        "coord": {
            "lon": 10.26667,
            "lat": 47.883331
        }
    },
    {
        "id": 2806846,
        "name": "Wolferstedt",
        "state": "",
        "country": "DE",
        "coord": {
            "lon": 11.43333,
            "lat": 51.433331
        }
    },
    {
        "id": 2806847,
        "name": "Wolferstadt",
        "state": "",
        "country": "DE",
        "coord": {
            "lon": 10.78333,
            "lat": 48.916672
        }
    },
    {
        "id": 2806849,
        "name": "Wolfersreut",
        "state": "",
        "country": "DE",
        "coord": {
            "lon": 13.48333,
            "lat": 48.816669
        }
    },
    {
        "id": 2806852,
        "name": "Wölfersheim",
        "state": "",
        "country": "DE",
        "coord": {
            "lon": 8.81667,
            "lat": 50.400002
        }
    },
    {
        "id": 2806855,
        "name": "Wölfershausen",
        "state": "",
        "country": "DE",
        "coord": {
            "lon": 9.99121,
            "lat": 50.873692
        }
    },
    {
        "id": 2806856,
        "name": "Wölfershausen",
        "state": "",
        "country": "DE",
        "coord": {
            "lon": 10.43333,
            "lat": 50.48333
        }
    },
    {
        "id": 2806861,
        "name": "Wolfersdorf",
        "state": "",
        "country": "DE",
        "coord": {
            "lon": 11.16667,
            "lat": 50.783329
        }
    },
    {
        "id": 2806869,
        "name": "Wolfersdorf",
        "state": "",
        "country": "DE",
        "coord": {
            "lon": 11.76667,
            "lat": 48.549999
        }
    },
    {
        "id": 2806870,
        "name": "Wolfersdorf",
        "state": "",
        "country": "DE",
        "coord": {
            "lon": 11.71667,
            "lat": 48.48333
        }
    },
    {
        "id": 2806872,
        "name": "Wolferschwenda",
        "state": "",
        "country": "DE",
        "coord": {
            "lon": 10.8,
            "lat": 51.23333
        }
    },
    {
        "id": 2806884,
        "name": "Wolferode",
        "state": "",
        "country": "DE",
        "coord": {
            "lon": 11.51299,
            "lat": 51.5065
        }
    },
    {
        "id": 2806890,
        "name": "Wölferlingen",
        "state": "",
        "country": "DE",
        "coord": {
            "lon": 7.85,
            "lat": 50.566669
        }
    },
    {
        "id": 2806898,
        "name": "Wölferbütt",
        "state": "",
        "country": "DE",
        "coord": {
            "lon": 10.05,
            "lat": 50.76667
        }
    },
    {
        "id": 2806903,
        "name": "Wolfenweiler",
        "state": "",
        "country": "DE",
        "coord": {
            "lon": 7.76667,
            "lat": 47.950001
        }
    },
    {
        "id": 2806914,
        "name": "Wolfenbüttel",
        "state": "",
        "country": "DE",
        "coord": {
            "lon": 10.55,
            "lat": 52.166672
        }
    },
    {
        "id": 2806919,
        "name": "Wolfen",
        "state": "",
        "country": "DE",
        "coord": {
            "lon": 12.28333,
            "lat": 51.666672
        }
    },
    {
        "id": 2806923,
        "name": "Wolfegg",
        "state": "",
        "country": "DE",
        "coord": {
            "lon": 9.79491,
            "lat": 47.820301
        }
    },
    {
        "id": 2806926,
        "name": "Wolfbusch",
        "state": "",
        "country": "DE",
        "coord": {
            "lon": 9.10526,
            "lat": 48.80619
        }
    },
    {
        "id": 2806940,
        "name": "Wolfartsweier",
        "state": "",
        "country": "DE",
        "coord": {
            "lon": 8.45673,
            "lat": 48.976501
        }
    },
    {
        "id": 2806946,
        "name": "Wolfach",
        "state": "",
        "country": "DE",
        "coord": {
            "lon": 8.21667,
            "lat": 48.299999
        }
    },
    {
        "id": 2806959,
        "name": "Woldert",
        "state": "",
        "country": "DE",
        "coord": {
            "lon": 7.65,
            "lat": 50.599998
        }
    },
    {
        "id": 2806963,
        "name": "Woldegk",
        "state": "",
        "country": "DE",
        "coord": {
            "lon": 13.58333,
            "lat": 53.466671
        }
    },
    {
        "id": 2806968,
        "name": "Wolde",
        "state": "",
        "country": "DE",
        "coord": {
            "lon": 13.08333,
            "lat": 53.683331
        }
    },
    {
        "id": 2806971,
        "name": "Wold",
        "state": "",
        "country": "DE",
        "coord": {
            "lon": 7.6,
            "lat": 53.650002
        }
    },
    {
        "id": 2806972,
        "name": "Wölchingen",
        "state": "",
        "country": "DE",
        "coord": {
            "lon": 9.63333,
            "lat": 49.48333
        }
    },
    {
        "id": 2806979,
        "name": "Wolbeck",
        "state": "",
        "country": "DE",
        "coord": {
            "lon": 7.73333,
            "lat": 51.933331
        }
    },
    {
        "id": 2807001,
        "name": "Wöhrden",
        "state": "",
        "country": "DE",
        "coord": {
            "lon": 9.0,
            "lat": 54.166672
        }
    },